{
"type": "FeatureCollection",
"name": "mycar-c3960a-store-listing",
"crs": { "type": "name", "properties": { "name": "urn:ogc:def:crs:OGC:1.3:CRS84" } },
"features": [
{ "type": "Feature", "properties": { "name": "Acacia Ridge", "url": "https://www.mycar.com.au/stores/qld/acacia-ridge" }, "geometry": { "type": "Point", "coordinates": [ 153.025697, -27.575465 ] } },
{ "type": "Feature", "properties": { "name": "Adelaide City", "url": "https://www.mycar.com.au/stores/sa/adelaide-city" }, "geometry": { "type": "Point", "coordinates": [ 138.606029, -34.927437 ] } },
{ "type": "Feature", "properties": { "name": "Airport West", "url": "https://www.mycar.com.au/stores/vic/airport-west" }, "geometry": { "type": "Point", "coordinates": [ 144.884878, -37.713995 ] } },
{ "type": "Feature", "properties": { "name": "Alice Springs", "url": "https://www.mycar.com.au/stores/nt/alice-springs" }, "geometry": { "type": "Point", "coordinates": [ 133.878157, -23.700417 ] } },
{ "type": "Feature", "properties": { "name": "Altona", "url": "https://www.mycar.com.au/stores/vic/altona" }, "geometry": { "type": "Point", "coordinates": [ 144.848199, -37.828186 ] } },
{ "type": "Feature", "properties": { "name": "Arana Hills", "url": "https://www.mycar.com.au/stores/qld/arana-hills" }, "geometry": { "type": "Point", "coordinates": [ 152.959054, -27.399077 ] } },
{ "type": "Feature", "properties": { "name": "Armadale", "url": "https://www.mycar.com.au/stores/wa/armadale" }, "geometry": { "type": "Point", "coordinates": [ 116.015535, -32.152802 ] } },
{ "type": "Feature", "properties": { "name": "Armidale", "url": "https://www.mycar.com.au/stores/nsw/armidale" }, "geometry": { "type": "Point", "coordinates": [ 151.661574, -30.512219 ] } },
{ "type": "Feature", "properties": { "name": "Ashfield", "url": "https://www.mycar.com.au/stores/nsw/ashfield" }, "geometry": { "type": "Point", "coordinates": [ 151.123327, -33.889237 ] } },
{ "type": "Feature", "properties": { "name": "Baldivis", "url": "https://www.mycar.com.au/stores/wa/baldivis" }, "geometry": { "type": "Point", "coordinates": [ 115.816591, -32.331789 ] } },
{ "type": "Feature", "properties": { "name": "Ballina", "url": "https://www.mycar.com.au/stores/nsw/ballina" }, "geometry": { "type": "Point", "coordinates": [ 153.558981, -28.859571 ] } },
{ "type": "Feature", "properties": { "name": "Banksia Grove", "url": "https://www.mycar.com.au/stores/wa/banksia-grove" }, "geometry": { "type": "Point", "coordinates": [ 115.802197, -31.705965 ] } },
{ "type": "Feature", "properties": { "name": "Bankstown", "url": "https://www.mycar.com.au/stores/nsw/bankstown" }, "geometry": { "type": "Point", "coordinates": [ 151.038806, -33.915997 ] } },
{ "type": "Feature", "properties": { "name": "Bateau Bay", "url": "https://www.mycar.com.au/stores/nsw/bateau-bay" }, "geometry": { "type": "Point", "coordinates": [ 151.473103, -33.37475 ] } },
{ "type": "Feature", "properties": { "name": "Belconnen", "url": "https://www.mycar.com.au/stores/act/belconnen" }, "geometry": { "type": "Point", "coordinates": [ 149.064488, -35.235117 ] } },
{ "type": "Feature", "properties": { "name": "Belmont", "url": "https://www.mycar.com.au/stores/vic/belmont" }, "geometry": { "type": "Point", "coordinates": [ 144.349634, -38.170203 ] } },
{ "type": "Feature", "properties": { "name": "Bendigo", "url": "https://www.mycar.com.au/stores/vic/bendigo" }, "geometry": { "type": "Point", "coordinates": [ 144.241241, -36.809997 ] } },
{ "type": "Feature", "properties": { "name": "Bentleigh East", "url": "https://www.mycar.com.au/stores/vic/bentleigh-east" }, "geometry": { "type": "Point", "coordinates": [ 145.052314, -37.919964 ] } },
{ "type": "Feature", "properties": { "name": "Berwick South", "url": "https://www.mycar.com.au/stores/vic/berwick-south" }, "geometry": { "type": "Point", "coordinates": [ 145.339401, -38.060409 ] } },
{ "type": "Feature", "properties": { "name": "Booragoon", "url": "https://www.mycar.com.au/stores/wa/booragoon" }, "geometry": { "type": "Point", "coordinates": [ 115.836768, -32.035466 ] } },
{ "type": "Feature", "properties": { "name": "Boronia", "url": "https://www.mycar.com.au/stores/vic/boronia" }, "geometry": { "type": "Point", "coordinates": [ 145.285993, -37.85971 ] } },
{ "type": "Feature", "properties": { "name": "Box Hill", "url": "https://www.mycar.com.au/stores/vic/box-hill" }, "geometry": { "type": "Point", "coordinates": [ 145.122291, -37.820685 ] } },
{ "type": "Feature", "properties": { "name": "Brandon Park", "url": "https://www.mycar.com.au/stores/vic/brandon-park" }, "geometry": { "type": "Point", "coordinates": [ 145.162538, -37.904751 ] } },
{ "type": "Feature", "properties": { "name": "Broadbeach", "url": "https://www.mycar.com.au/stores/qld/broadbeach" }, "geometry": { "type": "Point", "coordinates": [ 153.426068, -28.037024 ] } },
{ "type": "Feature", "properties": { "name": "Broadmeadows", "url": "https://www.mycar.com.au/stores/vic/broadmeadows" }, "geometry": { "type": "Point", "coordinates": [ 144.920121, -37.679567 ] } },
{ "type": "Feature", "properties": { "name": "Broadway", "url": "https://www.mycar.com.au/stores/nsw/broadway" }, "geometry": { "type": "Point", "coordinates": [ 151.194665, -33.883648 ] } },
{ "type": "Feature", "properties": { "name": "Brookvale", "url": "https://www.mycar.com.au/stores/nsw/brookvale" }, "geometry": { "type": "Point", "coordinates": [ 151.267142, -33.765591 ] } },
{ "type": "Feature", "properties": { "name": "Browns Plains", "url": "https://www.mycar.com.au/stores/qld/browns-plains" }, "geometry": { "type": "Point", "coordinates": [ 153.039881, -27.663717 ] } },
{ "type": "Feature", "properties": { "name": "Brunswick", "url": "https://www.mycar.com.au/stores/vic/brunswick" }, "geometry": { "type": "Point", "coordinates": [ 144.962345, -37.775519 ] } },
{ "type": "Feature", "properties": { "name": "Bunbury", "url": "https://www.mycar.com.au/stores/wa/bunbury" }, "geometry": { "type": "Point", "coordinates": [ 115.64384, -33.333223 ] } },
{ "type": "Feature", "properties": { "name": "Bundaberg", "url": "https://www.mycar.com.au/stores/qld/bundaberg" }, "geometry": { "type": "Point", "coordinates": [ 152.349056, -24.87171 ] } },
{ "type": "Feature", "properties": { "name": "Burleigh Heads", "url": "https://www.mycar.com.au/stores/qld/burleigh-heads" }, "geometry": { "type": "Point", "coordinates": [ 153.434293, -28.102169 ] } },
{ "type": "Feature", "properties": { "name": "Burpengary", "url": "https://www.mycar.com.au/stores/qld/burpengary" }, "geometry": { "type": "Point", "coordinates": [ 152.974455, -27.153975 ] } },
{ "type": "Feature", "properties": { "name": "Burwood East", "url": "https://www.mycar.com.au/stores/vic/burwood-east" }, "geometry": { "type": "Point", "coordinates": [ 145.14935, -37.852526 ] } },
{ "type": "Feature", "properties": { "name": "Cairns City", "url": "https://www.mycar.com.au/stores/qld/cairns-city" }, "geometry": { "type": "Point", "coordinates": [ 145.769705, -16.927539 ] } },
{ "type": "Feature", "properties": { "name": "Caloundra", "url": "https://www.mycar.com.au/stores/qld/caloundra" }, "geometry": { "type": "Point", "coordinates": [ 153.125112, -26.802514 ] } },
{ "type": "Feature", "properties": { "name": "Campbellfield", "url": "https://www.mycar.com.au/stores/vic/campbellfield" }, "geometry": { "type": "Point", "coordinates": [ 144.959858, -37.68867 ] } },
{ "type": "Feature", "properties": { "name": "Campbelltown", "url": "https://www.mycar.com.au/stores/nsw/campbelltown" }, "geometry": { "type": "Point", "coordinates": [ 150.810641, -34.069238 ] } },
{ "type": "Feature", "properties": { "name": "Cannon Hill", "url": "https://www.mycar.com.au/stores/qld/cannon-hill" }, "geometry": { "type": "Point", "coordinates": [ 153.098332, -27.471462 ] } },
{ "type": "Feature", "properties": { "name": "Capalaba", "url": "https://www.mycar.com.au/stores/qld/capalaba" }, "geometry": { "type": "Point", "coordinates": [ 153.191128, -27.524787 ] } },
{ "type": "Feature", "properties": { "name": "Carousel", "url": "https://www.mycar.com.au/stores/wa/carousel" }, "geometry": { "type": "Point", "coordinates": [ 115.936548, -32.018752 ] } },
{ "type": "Feature", "properties": { "name": "Carrum Downs", "url": "https://www.mycar.com.au/stores/vic/carrum-downs" }, "geometry": { "type": "Point", "coordinates": [ 145.186756, -38.102012 ] } },
{ "type": "Feature", "properties": { "name": "Castle Hill", "url": "https://www.mycar.com.au/stores/nsw/castle-hill" }, "geometry": { "type": "Point", "coordinates": [ 151.005654, -33.730868 ] } },
{ "type": "Feature", "properties": { "name": "Casuarina", "url": "https://www.mycar.com.au/stores/nt/casuarina" }, "geometry": { "type": "Point", "coordinates": [ 130.881079, -12.37615 ] } },
{ "type": "Feature", "properties": { "name": "Casula", "url": "https://www.mycar.com.au/stores/nsw/casula" }, "geometry": { "type": "Point", "coordinates": [ 150.899843, -33.947644 ] } },
{ "type": "Feature", "properties": { "name": "CE Albury", "url": "https://www.mycar.com.au/stores/nsw/ce-albury" }, "geometry": { "type": "Point", "coordinates": [ 146.921488, -36.074953 ] } },
{ "type": "Feature", "properties": { "name": "CE Alexandra Hills", "url": "https://www.mycar.com.au/stores/qld/ce-alexandra-hills" }, "geometry": { "type": "Point", "coordinates": [ 153.211877, -27.521163 ] } },
{ "type": "Feature", "properties": { "name": "CE Altona Meadows", "url": "https://www.mycar.com.au/stores/vic/ce-altona-meadows" }, "geometry": { "type": "Point", "coordinates": [ 144.787042, -37.873398 ] } },
{ "type": "Feature", "properties": { "name": "CE Annandale", "url": "https://www.mycar.com.au/stores/nsw/ce-annandale" }, "geometry": { "type": "Point", "coordinates": [ 151.17082, -33.880883 ] } },
{ "type": "Feature", "properties": { "name": "CE Bendigo", "url": "https://www.mycar.com.au/stores/vic/ce-bendigo" }, "geometry": { "type": "Point", "coordinates": [ 144.267734, -36.765736 ] } },
{ "type": "Feature", "properties": { "name": "CE Benowa", "url": "https://www.mycar.com.au/stores/qld/ce-benowa" }, "geometry": { "type": "Point", "coordinates": [ 153.392818, -28.010346 ] } },
{ "type": "Feature", "properties": { "name": "CE Bicton", "url": "https://www.mycar.com.au/stores/wa/ce-bicton" }, "geometry": { "type": "Point", "coordinates": [ 115.792905, -32.034108 ] } },
{ "type": "Feature", "properties": { "name": "CE Birkdale", "url": "https://www.mycar.com.au/stores/qld/ce-birkdale" }, "geometry": { "type": "Point", "coordinates": [ 153.216471, -27.493169 ] } },
{ "type": "Feature", "properties": { "name": "CE Blackburn", "url": "https://www.mycar.com.au/stores/vic/ce-blackburn" }, "geometry": { "type": "Point", "coordinates": [ 145.140879, -37.808941 ] } },
{ "type": "Feature", "properties": { "name": "CE Braddon", "url": "https://www.mycar.com.au/stores/act/ce-braddon" }, "geometry": { "type": "Point", "coordinates": [ 149.131993, -35.270588 ] } },
{ "type": "Feature", "properties": { "name": "CE Brentwood", "url": "https://www.mycar.com.au/stores/wa/ce-brentwood" }, "geometry": { "type": "Point", "coordinates": [ 115.848825, -32.041235 ] } },
{ "type": "Feature", "properties": { "name": "CE Buddina", "url": "https://www.mycar.com.au/stores/qld/ce-buddina" }, "geometry": { "type": "Point", "coordinates": [ 153.130015, -26.70521 ] } },
{ "type": "Feature", "properties": { "name": "CE Bull Creek", "url": "https://www.mycar.com.au/stores/wa/ce-bull-creek" }, "geometry": { "type": "Point", "coordinates": [ 115.858028, -32.063215 ] } },
{ "type": "Feature", "properties": { "name": "CE Cammeray", "url": "https://www.mycar.com.au/stores/nsw/ce-cammeray" }, "geometry": { "type": "Point", "coordinates": [ 151.210414, -33.821209 ] } },
{ "type": "Feature", "properties": { "name": "CE Chapel Hill", "url": "https://www.mycar.com.au/stores/qld/ce-chapel-hill" }, "geometry": { "type": "Point", "coordinates": [ 152.96046, -27.50513 ] } },
{ "type": "Feature", "properties": { "name": "CE Charlestown", "url": "https://www.mycar.com.au/stores/nsw/ce-charlestown" }, "geometry": { "type": "Point", "coordinates": [ 151.695388, -32.965375 ] } },
{ "type": "Feature", "properties": { "name": "CE Charnwood", "url": "https://www.mycar.com.au/stores/act/ce-charnwood" }, "geometry": { "type": "Point", "coordinates": [ 149.02992, -35.205391 ] } },
{ "type": "Feature", "properties": { "name": "CE Claremont", "url": "https://www.mycar.com.au/stores/wa/ce-claremont" }, "geometry": { "type": "Point", "coordinates": [ 115.783675, -31.982439 ] } },
{ "type": "Feature", "properties": { "name": "CE Cloverdale", "url": "https://www.mycar.com.au/stores/wa/ce-cloverdale" }, "geometry": { "type": "Point", "coordinates": [ 115.93294, -31.965091 ] } },
{ "type": "Feature", "properties": { "name": "CE Coorparoo", "url": "https://www.mycar.com.au/stores/qld/ce-coorparoo" }, "geometry": { "type": "Point", "coordinates": [ 153.055174, -27.496922 ] } },
{ "type": "Feature", "properties": { "name": "CE Dandenong", "url": "https://www.mycar.com.au/stores/vic/ce-dandenong" }, "geometry": { "type": "Point", "coordinates": [ 145.208004, -37.991461 ] } },
{ "type": "Feature", "properties": { "name": "CE Deakin", "url": "https://www.mycar.com.au/stores/act/ce-deakin" }, "geometry": { "type": "Point", "coordinates": [ 149.107698, -35.313859 ] } },
{ "type": "Feature", "properties": { "name": "CE Doncaster", "url": "https://www.mycar.com.au/stores/vic/ce-doncaster" }, "geometry": { "type": "Point", "coordinates": [ 145.113943, -37.773852 ] } },
{ "type": "Feature", "properties": { "name": "CE Drummoyne", "url": "https://www.mycar.com.au/stores/nsw/ce-drummoyne" }, "geometry": { "type": "Point", "coordinates": [ 151.158863, -33.855975 ] } },
{ "type": "Feature", "properties": { "name": "CE Duncraig", "url": "https://www.mycar.com.au/stores/wa/ce-duncraig" }, "geometry": { "type": "Point", "coordinates": [ 115.782746, -31.835679 ] } },
{ "type": "Feature", "properties": { "name": "CE Eltham", "url": "https://www.mycar.com.au/stores/vic/ce-eltham" }, "geometry": { "type": "Point", "coordinates": [ 145.147044, -37.727498 ] } },
{ "type": "Feature", "properties": { "name": "CE Geebung", "url": "https://www.mycar.com.au/stores/qld/ce-geebung" }, "geometry": { "type": "Point", "coordinates": [ 153.03571, -27.374082 ] } },
{ "type": "Feature", "properties": { "name": "CE Harbord", "url": "https://www.mycar.com.au/stores/nsw/ce-harbord" }, "geometry": { "type": "Point", "coordinates": [ 151.278564, -33.763913 ] } },
{ "type": "Feature", "properties": { "name": "CE Hawker", "url": "https://www.mycar.com.au/stores/act/ce-hawker" }, "geometry": { "type": "Point", "coordinates": [ 149.044435, -35.244291 ] } },
{ "type": "Feature", "properties": { "name": "CE Hawthorn", "url": "https://www.mycar.com.au/stores/vic/ce-hawthorn" }, "geometry": { "type": "Point", "coordinates": [ 145.042132, -37.829406 ] } },
{ "type": "Feature", "properties": { "name": "CE Kallangur", "url": "https://www.mycar.com.au/stores/qld/ce-kallangur" }, "geometry": { "type": "Point", "coordinates": [ 153.001173, -27.249358 ] } },
{ "type": "Feature", "properties": { "name": "CE Kew", "url": "https://www.mycar.com.au/stores/vic/ce-kew" }, "geometry": { "type": "Point", "coordinates": [ 145.051516, -37.809112 ] } },
{ "type": "Feature", "properties": { "name": "CE Kirwan", "url": "https://www.mycar.com.au/stores/qld/ce-kirwan" }, "geometry": { "type": "Point", "coordinates": [ 146.728828, -19.314464 ] } },
{ "type": "Feature", "properties": { "name": "CE Launceston", "url": "https://www.mycar.com.au/stores/tas/ce-launceston" }, "geometry": { "type": "Point", "coordinates": [ 147.136886, -41.440155 ] } },
{ "type": "Feature", "properties": { "name": "CE Manuka", "url": "https://www.mycar.com.au/stores/act/ce-manuka" }, "geometry": { "type": "Point", "coordinates": [ 149.133907, -35.320089 ] } },
{ "type": "Feature", "properties": { "name": "CE Marsden", "url": "https://www.mycar.com.au/stores/qld/ce-marsden" }, "geometry": { "type": "Point", "coordinates": [ 153.092669, -27.680997 ] } },
{ "type": "Feature", "properties": { "name": "CE Modbury", "url": "https://www.mycar.com.au/stores/sa/ce-modbury" }, "geometry": { "type": "Point", "coordinates": [ 138.671956, -34.828703 ] } },
{ "type": "Feature", "properties": { "name": "CE Mt Gravatt", "url": "https://www.mycar.com.au/stores/qld/ce-mt-gravatt" }, "geometry": { "type": "Point", "coordinates": [ 153.071684, -27.52995 ] } },
{ "type": "Feature", "properties": { "name": "CE Mt Waverley", "url": "https://www.mycar.com.au/stores/vic/ce-mt-waverley" }, "geometry": { "type": "Point", "coordinates": [ 145.129137, -37.876687 ] } },
{ "type": "Feature", "properties": { "name": "CE Nelson Bay", "url": "https://www.mycar.com.au/stores/nsw/ce-nelson-bay" }, "geometry": { "type": "Point", "coordinates": [ 152.143534, -32.722765 ] } },
{ "type": "Feature", "properties": { "name": "CE Neutral Bay", "url": "https://www.mycar.com.au/stores/nsw/ce-neutral-bay" }, "geometry": { "type": "Point", "coordinates": [ 151.219643, -33.829164 ] } },
{ "type": "Feature", "properties": { "name": "CE North Ryde", "url": "https://www.mycar.com.au/stores/nsw/ce-north-ryde" }, "geometry": { "type": "Point", "coordinates": [ 151.129443, -33.784847 ] } },
{ "type": "Feature", "properties": { "name": "CE Northmead", "url": "https://www.mycar.com.au/stores/nsw/ce-northmead" }, "geometry": { "type": "Point", "coordinates": [ 151.000523, -33.777166 ] } },
{ "type": "Feature", "properties": { "name": "CE Oyster Bay", "url": "https://www.mycar.com.au/stores/nsw/ce-oyster-bay" }, "geometry": { "type": "Point", "coordinates": [ 151.075048, -34.009241 ] } },
{ "type": "Feature", "properties": { "name": "CE Pennant Hills", "url": "https://www.mycar.com.au/stores/nsw/ce-pennant-hills" }, "geometry": { "type": "Point", "coordinates": [ 151.068208, -33.739269 ] } },
{ "type": "Feature", "properties": { "name": "CE Phillip", "url": "https://www.mycar.com.au/stores/act/ce-phillip" }, "geometry": { "type": "Point", "coordinates": [ 149.084762, -35.349779 ] } },
{ "type": "Feature", "properties": { "name": "CE Randwick", "url": "https://www.mycar.com.au/stores/nsw/ce-randwick" }, "geometry": { "type": "Point", "coordinates": [ 151.234191, -33.908132 ] } },
{ "type": "Feature", "properties": { "name": "CE Rochedale", "url": "https://www.mycar.com.au/stores/qld/ce-rochedale" }, "geometry": { "type": "Point", "coordinates": [ 153.121739, -27.595614 ] } },
{ "type": "Feature", "properties": { "name": "CE Rosanna", "url": "https://www.mycar.com.au/stores/vic/ce-rosanna" }, "geometry": { "type": "Point", "coordinates": [ 145.066834, -37.742174 ] } },
{ "type": "Feature", "properties": { "name": "CE Rose Park", "url": "https://www.mycar.com.au/stores/sa/ce-rose-park" }, "geometry": { "type": "Point", "coordinates": [ 138.624179, -34.930539 ] } },
{ "type": "Feature", "properties": { "name": "CE Salamander Bay", "url": "https://www.mycar.com.au/stores/nsw/ce-salamander-bay" }, "geometry": { "type": "Point", "coordinates": [ 152.106784, -32.737457 ] } },
{ "type": "Feature", "properties": { "name": "CE South Perth", "url": "https://www.mycar.com.au/stores/wa/ce-south-perth" }, "geometry": { "type": "Point", "coordinates": [ 115.882381, -31.974346 ] } },
{ "type": "Feature", "properties": { "name": "CE St Albans", "url": "https://www.mycar.com.au/stores/vic/ce-st-albans" }, "geometry": { "type": "Point", "coordinates": [ 144.779829, -37.742273 ] } },
{ "type": "Feature", "properties": { "name": "CE St Clair", "url": "https://www.mycar.com.au/stores/nsw/ce-st-clair" }, "geometry": { "type": "Point", "coordinates": [ 150.771401, -33.788276 ] } },
{ "type": "Feature", "properties": { "name": "CE St Lucia", "url": "https://www.mycar.com.au/stores/qld/ce-st-lucia" }, "geometry": { "type": "Point", "coordinates": [ 152.994157, -27.491494 ] } },
{ "type": "Feature", "properties": { "name": "CE Templestowe", "url": "https://www.mycar.com.au/stores/vic/ce-templestowe" }, "geometry": { "type": "Point", "coordinates": [ 145.134742, -37.752262 ] } },
{ "type": "Feature", "properties": { "name": "CE Town Centre", "url": "https://www.mycar.com.au/stores/act/ce-town-centre" }, "geometry": { "type": "Point", "coordinates": [ 149.060912, -35.239665 ] } },
{ "type": "Feature", "properties": { "name": "CE Umina", "url": "https://www.mycar.com.au/stores/nsw/ce-umina" }, "geometry": { "type": "Point", "coordinates": [ 151.316069, -33.521345 ] } },
{ "type": "Feature", "properties": { "name": "CE Wahroonga", "url": "https://www.mycar.com.au/stores/nsw/ce-wahroonga" }, "geometry": { "type": "Point", "coordinates": [ 151.116125, -33.71947 ] } },
{ "type": "Feature", "properties": { "name": "CE Wallsend", "url": "https://www.mycar.com.au/stores/nsw/ce-wallsend" }, "geometry": { "type": "Point", "coordinates": [ 151.669555, -32.907079 ] } },
{ "type": "Feature", "properties": { "name": "CE Wanniassa", "url": "https://www.mycar.com.au/stores/act/ce-wanniassa" }, "geometry": { "type": "Point", "coordinates": [ 149.08644, -35.391505 ] } },
{ "type": "Feature", "properties": { "name": "CE West Perth", "url": "https://www.mycar.com.au/stores/wa/ce-west-perth" }, "geometry": { "type": "Point", "coordinates": [ 115.839707, -31.945456 ] } },
{ "type": "Feature", "properties": { "name": "CE Windsor", "url": "https://www.mycar.com.au/stores/vic/ce-windsor" }, "geometry": { "type": "Point", "coordinates": [ 144.992699, -37.857368 ] } },
{ "type": "Feature", "properties": { "name": "Chadstone", "url": "https://www.mycar.com.au/stores/vic/chadstone" }, "geometry": { "type": "Point", "coordinates": [ 145.083184, -37.88614 ] } },
{ "type": "Feature", "properties": { "name": "Chatswood", "url": "https://www.mycar.com.au/stores/nsw/chatswood" }, "geometry": { "type": "Point", "coordinates": [ 151.198507, -33.787472 ] } },
{ "type": "Feature", "properties": { "name": "Chermside", "url": "https://www.mycar.com.au/stores/qld/chermside" }, "geometry": { "type": "Point", "coordinates": [ 153.03218, -27.380401 ] } },
{ "type": "Feature", "properties": { "name": "Chirnside Park", "url": "https://www.mycar.com.au/stores/vic/chirnside-park" }, "geometry": { "type": "Point", "coordinates": [ 145.31217, -37.758026 ] } },
{ "type": "Feature", "properties": { "name": "Churchill Centre", "url": "https://www.mycar.com.au/stores/sa/churchill-centre" }, "geometry": { "type": "Point", "coordinates": [ 138.582965, -34.869473 ] } },
{ "type": "Feature", "properties": { "name": "Clarkson", "url": "https://www.mycar.com.au/stores/wa/clarkson" }, "geometry": { "type": "Point", "coordinates": [ 115.717916, -31.69006 ] } },
{ "type": "Feature", "properties": { "name": "Clyde", "url": "https://www.mycar.com.au/stores/vic/clyde" }, "geometry": { "type": "Point", "coordinates": [ 145.321311, -38.118975 ] } },
{ "type": "Feature", "properties": { "name": "Coburg", "url": "https://www.mycar.com.au/stores/vic/coburg" }, "geometry": { "type": "Point", "coordinates": [ 144.96703, -37.737552 ] } },
{ "type": "Feature", "properties": { "name": "Coolalinga", "url": "https://www.mycar.com.au/stores/nt/coolalinga" }, "geometry": { "type": "Point", "coordinates": [ 131.04187, -12.520754 ] } },
{ "type": "Feature", "properties": { "name": "Coomera", "url": "https://www.mycar.com.au/stores/qld/coomera" }, "geometry": { "type": "Point", "coordinates": [ 153.314147, -27.852595 ] } },
{ "type": "Feature", "properties": { "name": "Corio", "url": "https://www.mycar.com.au/stores/vic/corio" }, "geometry": { "type": "Point", "coordinates": [ 144.355721, -38.075379 ] } },
{ "type": "Feature", "properties": { "name": "Cranbourne", "url": "https://www.mycar.com.au/stores/vic/cranbourne" }, "geometry": { "type": "Point", "coordinates": [ 145.27069, -38.111718 ] } },
{ "type": "Feature", "properties": { "name": "Cranbourne Park", "url": "https://www.mycar.com.au/stores/vic/cranbourne-park" }, "geometry": { "type": "Point", "coordinates": [ 145.28244, -38.10938 ] } },
{ "type": "Feature", "properties": { "name": "Croydon", "url": "https://www.mycar.com.au/stores/vic/croydon" }, "geometry": { "type": "Point", "coordinates": [ 145.280578, -37.799024 ] } },
{ "type": "Feature", "properties": { "name": "Deer Park", "url": "https://www.mycar.com.au/stores/vic/deer-park" }, "geometry": { "type": "Point", "coordinates": [ 144.776512, -37.751987 ] } },
{ "type": "Feature", "properties": { "name": "Delacombe", "url": "https://www.mycar.com.au/stores/vic/delacombe" }, "geometry": { "type": "Point", "coordinates": [ 143.805597, -37.593534 ] } },
{ "type": "Feature", "properties": { "name": "Derrimut", "url": "https://www.mycar.com.au/stores/vic/derrimut" }, "geometry": { "type": "Point", "coordinates": [ 144.772403, -37.783299 ] } },
{ "type": "Feature", "properties": { "name": "Doncaster", "url": "https://www.mycar.com.au/stores/vic/doncaster" }, "geometry": { "type": "Point", "coordinates": [ 145.126849, -37.786453 ] } },
{ "type": "Feature", "properties": { "name": "Doncaster East", "url": "https://www.mycar.com.au/stores/vic/doncaster-east" }, "geometry": { "type": "Point", "coordinates": [ 145.158339, -37.78838 ] } },
{ "type": "Feature", "properties": { "name": "East Perth", "url": "https://www.mycar.com.au/stores/wa/east-perth" }, "geometry": { "type": "Point", "coordinates": [ 115.867996, -31.952475 ] } },
{ "type": "Feature", "properties": { "name": "Eastlands Rosny", "url": "https://www.mycar.com.au/stores/tas/eastlands-rosny" }, "geometry": { "type": "Point", "coordinates": [ 147.368141, -42.866376 ] } },
{ "type": "Feature", "properties": { "name": "Edmondson Park", "url": "https://www.mycar.com.au/stores/nsw/edmondson-park" }, "geometry": { "type": "Point", "coordinates": [ 150.856329, -33.969958 ] } },
{ "type": "Feature", "properties": { "name": "Elanora", "url": "https://www.mycar.com.au/stores/qld/elanora" }, "geometry": { "type": "Point", "coordinates": [ 153.469211, -28.135031 ] } },
{ "type": "Feature", "properties": { "name": "Endeavour Hills", "url": "https://www.mycar.com.au/stores/vic/endeavour-hills" }, "geometry": { "type": "Point", "coordinates": [ 145.260741, -37.976458 ] } },
{ "type": "Feature", "properties": { "name": "Epping", "url": "https://www.mycar.com.au/stores/vic/epping" }, "geometry": { "type": "Point", "coordinates": [ 145.020944, -37.652652 ] } },
{ "type": "Feature", "properties": { "name": "Erina", "url": "https://www.mycar.com.au/stores/nsw/erina" }, "geometry": { "type": "Point", "coordinates": [ 151.394321, -33.436505 ] } },
{ "type": "Feature", "properties": { "name": "Fairfield", "url": "https://www.mycar.com.au/stores/nsw/fairfield" }, "geometry": { "type": "Point", "coordinates": [ 150.952166, -33.867411 ] } },
{ "type": "Feature", "properties": { "name": "Fairfield Central", "url": "https://www.mycar.com.au/stores/qld/fairfield-central" }, "geometry": { "type": "Point", "coordinates": [ 146.815707, -19.315832 ] } },
{ "type": "Feature", "properties": { "name": "Figtree", "url": "https://www.mycar.com.au/stores/nsw/figtree" }, "geometry": { "type": "Point", "coordinates": [ 150.862498, -34.436629 ] } },
{ "type": "Feature", "properties": { "name": "Findon", "url": "https://www.mycar.com.au/stores/sa/findon" }, "geometry": { "type": "Point", "coordinates": [ 138.533009, -34.905014 ] } },
{ "type": "Feature", "properties": { "name": "Firle", "url": "https://www.mycar.com.au/stores/sa/firle" }, "geometry": { "type": "Point", "coordinates": [ 138.655893, -34.904998 ] } },
{ "type": "Feature", "properties": { "name": "Forest Hill", "url": "https://www.mycar.com.au/stores/vic/forest-hill" }, "geometry": { "type": "Point", "coordinates": [ 145.165417, -37.835098 ] } },
{ "type": "Feature", "properties": { "name": "Forster South", "url": "https://www.mycar.com.au/stores/nsw/forster-south" }, "geometry": { "type": "Point", "coordinates": [ 152.520628, -32.199987 ] } },
{ "type": "Feature", "properties": { "name": "Fountain Gate", "url": "https://www.mycar.com.au/stores/vic/fountain-gate" }, "geometry": { "type": "Point", "coordinates": [ 145.305541, -38.019697 ] } },
{ "type": "Feature", "properties": { "name": "Frankston", "url": "https://www.mycar.com.au/stores/vic/frankston" }, "geometry": { "type": "Point", "coordinates": [ 145.127241, -38.139054 ] } },
{ "type": "Feature", "properties": { "name": "Fyshwick", "url": "https://www.mycar.com.au/stores/act/fyshwick" }, "geometry": { "type": "Point", "coordinates": [ 149.179122, -35.325402 ] } },
{ "type": "Feature", "properties": { "name": "Garden City", "url": "https://www.mycar.com.au/stores/qld/garden-city" }, "geometry": { "type": "Point", "coordinates": [ 153.086051, -27.563579 ] } },
{ "type": "Feature", "properties": { "name": "Gladstone", "url": "https://www.mycar.com.au/stores/qld/gladstone" }, "geometry": { "type": "Point", "coordinates": [ 151.241721, -23.870174 ] } },
{ "type": "Feature", "properties": { "name": "Gorokan", "url": "https://www.mycar.com.au/stores/nsw/gorokan" }, "geometry": { "type": "Point", "coordinates": [ 151.504563, -33.241361 ] } },
{ "type": "Feature", "properties": { "name": "Greensborough", "url": "https://www.mycar.com.au/stores/vic/greensborough" }, "geometry": { "type": "Point", "coordinates": [ 145.102515, -37.703084 ] } },
{ "type": "Feature", "properties": { "name": "Gungahlin", "url": "https://www.mycar.com.au/stores/act/gungahlin" }, "geometry": { "type": "Point", "coordinates": [ 149.135756, -35.186489 ] } },
{ "type": "Feature", "properties": { "name": "Hallam", "url": "https://www.mycar.com.au/stores/vic/hallam" }, "geometry": { "type": "Point", "coordinates": [ 145.27126, -38.005293 ] } },
{ "type": "Feature", "properties": { "name": "Harrisdale", "url": "https://www.mycar.com.au/stores/wa/harrisdale" }, "geometry": { "type": "Point", "coordinates": [ 115.925851, -32.126154 ] } },
{ "type": "Feature", "properties": { "name": "Hartwell", "url": "https://www.mycar.com.au/stores/vic/hartwell" }, "geometry": { "type": "Point", "coordinates": [ 145.08169, -37.849014 ] } },
{ "type": "Feature", "properties": { "name": "Hastings", "url": "https://www.mycar.com.au/stores/vic/hastings" }, "geometry": { "type": "Point", "coordinates": [ 145.183997, -38.286087 ] } },
{ "type": "Feature", "properties": { "name": "Helensvale", "url": "https://www.mycar.com.au/stores/qld/helensvale" }, "geometry": { "type": "Point", "coordinates": [ 153.336182, -27.925725 ] } },
{ "type": "Feature", "properties": { "name": "Hervey Bay", "url": "https://www.mycar.com.au/stores/qld/hervey-bay" }, "geometry": { "type": "Point", "coordinates": [ 152.837249, -25.291244 ] } },
{ "type": "Feature", "properties": { "name": "Hornsby", "url": "https://www.mycar.com.au/stores/nsw/hornsby" }, "geometry": { "type": "Point", "coordinates": [ 151.102086, -33.703484 ] } },
{ "type": "Feature", "properties": { "name": "Horsham", "url": "https://www.mycar.com.au/stores/vic/horsham" }, "geometry": { "type": "Point", "coordinates": [ 142.196166, -36.715576 ] } },
{ "type": "Feature", "properties": { "name": "Hurstville", "url": "https://www.mycar.com.au/stores/nsw/hurstville" }, "geometry": { "type": "Point", "coordinates": [ 151.106036, -33.965884 ] } },
{ "type": "Feature", "properties": { "name": "Indooroopilly", "url": "https://www.mycar.com.au/stores/qld/indooroopilly" }, "geometry": { "type": "Point", "coordinates": [ 152.97569, -27.497501 ] } },
{ "type": "Feature", "properties": { "name": "Ingle Farm", "url": "https://www.mycar.com.au/stores/sa/ingle-farm" }, "geometry": { "type": "Point", "coordinates": [ 138.648022, -34.829268 ] } },
{ "type": "Feature", "properties": { "name": "Innaloo", "url": "https://www.mycar.com.au/stores/wa/innaloo" }, "geometry": { "type": "Point", "coordinates": [ 115.798406, -31.901382 ] } },
{ "type": "Feature", "properties": { "name": "Ipswich", "url": "https://www.mycar.com.au/stores/qld/ipswich" }, "geometry": { "type": "Point", "coordinates": [ 152.761349, -27.609009 ] } },
{ "type": "Feature", "properties": { "name": "Joondalup", "url": "https://www.mycar.com.au/stores/wa/joondalup" }, "geometry": { "type": "Point", "coordinates": [ 115.765389, -31.74235 ] } },
{ "type": "Feature", "properties": { "name": "Kardinya", "url": "https://www.mycar.com.au/stores/wa/kardinya" }, "geometry": { "type": "Point", "coordinates": [ 115.816184, -32.0681 ] } },
{ "type": "Feature", "properties": { "name": "Katoomba", "url": "https://www.mycar.com.au/stores/nsw/katoomba" }, "geometry": { "type": "Point", "coordinates": [ 150.308483, -33.708972 ] } },
{ "type": "Feature", "properties": { "name": "Keilor", "url": "https://www.mycar.com.au/stores/vic/keilor" }, "geometry": { "type": "Point", "coordinates": [ 144.806929, -37.727739 ] } },
{ "type": "Feature", "properties": { "name": "Kellyville", "url": "https://www.mycar.com.au/stores/nsw/kellyville" }, "geometry": { "type": "Point", "coordinates": [ 150.97292, -33.71352 ] } },
{ "type": "Feature", "properties": { "name": "Keysborough", "url": "https://www.mycar.com.au/stores/vic/keysborough" }, "geometry": { "type": "Point", "coordinates": [ 145.173393, -37.992783 ] } },
{ "type": "Feature", "properties": { "name": "Kippa-Ring", "url": "https://www.mycar.com.au/stores/qld/kippa-ring" }, "geometry": { "type": "Point", "coordinates": [ 153.087144, -27.225517 ] } },
{ "type": "Feature", "properties": { "name": "Knox City", "url": "https://www.mycar.com.au/stores/vic/knox-city" }, "geometry": { "type": "Point", "coordinates": [ 145.238792, -37.868224 ] } },
{ "type": "Feature", "properties": { "name": "Kotara", "url": "https://www.mycar.com.au/stores/nsw/kotara" }, "geometry": { "type": "Point", "coordinates": [ 151.712883, -32.942304 ] } },
{ "type": "Feature", "properties": { "name": "Kurralta Park", "url": "https://www.mycar.com.au/stores/sa/kurralta-park" }, "geometry": { "type": "Point", "coordinates": [ 138.565712, -34.956354 ] } },
{ "type": "Feature", "properties": { "name": "Launceston", "url": "https://www.mycar.com.au/stores/tas/launceston" }, "geometry": { "type": "Point", "coordinates": [ 147.148088, -41.428911 ] } },
{ "type": "Feature", "properties": { "name": "Lilydale", "url": "https://www.mycar.com.au/stores/vic/lilydale" }, "geometry": { "type": "Point", "coordinates": [ 145.36096, -37.756361 ] } },
{ "type": "Feature", "properties": { "name": "Lismore", "url": "https://www.mycar.com.au/stores/nsw/lismore" }, "geometry": { "type": "Point", "coordinates": [ 153.286746, -28.810167 ] } },
{ "type": "Feature", "properties": { "name": "Loganholme", "url": "https://www.mycar.com.au/stores/qld/loganholme" }, "geometry": { "type": "Point", "coordinates": [ 153.171837, -27.660414 ] } },
{ "type": "Feature", "properties": { "name": "Mackay", "url": "https://www.mycar.com.au/stores/qld/mackay" }, "geometry": { "type": "Point", "coordinates": [ 149.15806, -21.119144 ] } },
{ "type": "Feature", "properties": { "name": "Macquarie Centre", "url": "https://www.mycar.com.au/stores/nsw/macquarie-centre" }, "geometry": { "type": "Point", "coordinates": [ 151.12102, -33.775794 ] } },
{ "type": "Feature", "properties": { "name": "Maddington", "url": "https://www.mycar.com.au/stores/wa/maddington" }, "geometry": { "type": "Point", "coordinates": [ 115.978256, -32.053239 ] } },
{ "type": "Feature", "properties": { "name": "Maitland", "url": "https://www.mycar.com.au/stores/nsw/maitland" }, "geometry": { "type": "Point", "coordinates": [ 151.556119, -32.732862 ] } },
{ "type": "Feature", "properties": { "name": "Mandurah", "url": "https://www.mycar.com.au/stores/wa/mandurah" }, "geometry": { "type": "Point", "coordinates": [ 115.739062, -32.535337 ] } },
{ "type": "Feature", "properties": { "name": "Marion", "url": "https://www.mycar.com.au/stores/sa/marion" }, "geometry": { "type": "Point", "coordinates": [ 138.540748, -35.015889 ] } },
{ "type": "Feature", "properties": { "name": "Maroochydore", "url": "https://www.mycar.com.au/stores/qld/maroochydore" }, "geometry": { "type": "Point", "coordinates": [ 153.088514, -26.654025 ] } },
{ "type": "Feature", "properties": { "name": "Marrickville", "url": "https://www.mycar.com.au/stores/nsw/marrickville" }, "geometry": { "type": "Point", "coordinates": [ 151.172153, -33.906406 ] } },
{ "type": "Feature", "properties": { "name": "Melton", "url": "https://www.mycar.com.au/stores/vic/melton" }, "geometry": { "type": "Point", "coordinates": [ 144.565087, -37.685986 ] } },
{ "type": "Feature", "properties": { "name": "Merrylands", "url": "https://www.mycar.com.au/stores/nsw/merrylands" }, "geometry": { "type": "Point", "coordinates": [ 150.992372, -33.834259 ] } },
{ "type": "Feature", "properties": { "name": "Midland", "url": "https://www.mycar.com.au/stores/wa/midland" }, "geometry": { "type": "Point", "coordinates": [ 116.010328, -31.889817 ] } },
{ "type": "Feature", "properties": { "name": "Mildura", "url": "https://www.mycar.com.au/stores/vic/mildura" }, "geometry": { "type": "Point", "coordinates": [ 142.160709, -34.182357 ] } },
{ "type": "Feature", "properties": { "name": "Morayfield", "url": "https://www.mycar.com.au/stores/qld/morayfield" }, "geometry": { "type": "Point", "coordinates": [ 152.950207, -27.103781 ] } },
{ "type": "Feature", "properties": { "name": "Morley", "url": "https://www.mycar.com.au/stores/wa/morley" }, "geometry": { "type": "Point", "coordinates": [ 115.899636, -31.896991 ] } },
{ "type": "Feature", "properties": { "name": "Mount Druitt", "url": "https://www.mycar.com.au/stores/nsw/mount-druitt" }, "geometry": { "type": "Point", "coordinates": [ 150.819833, -33.767015 ] } },
{ "type": "Feature", "properties": { "name": "Mount Ommaney", "url": "https://www.mycar.com.au/stores/qld/mount-ommaney" }, "geometry": { "type": "Point", "coordinates": [ 152.93894, -27.549647 ] } },
{ "type": "Feature", "properties": { "name": "Mt Sheridan", "url": "https://www.mycar.com.au/stores/qld/mt-sheridan" }, "geometry": { "type": "Point", "coordinates": [ 145.740402, -16.988153 ] } },
{ "type": "Feature", "properties": { "name": "Munno Para", "url": "https://www.mycar.com.au/stores/sa/munno-para" }, "geometry": { "type": "Point", "coordinates": [ 138.689884, -34.688221 ] } },
{ "type": "Feature", "properties": { "name": "Narellan", "url": "https://www.mycar.com.au/stores/nsw/narellan" }, "geometry": { "type": "Point", "coordinates": [ 150.738227, -34.038556 ] } },
{ "type": "Feature", "properties": { "name": "New Town", "url": "https://www.mycar.com.au/stores/tas/new-town" }, "geometry": { "type": "Point", "coordinates": [ 147.30484, -42.855811 ] } },
{ "type": "Feature", "properties": { "name": "Noarlunga", "url": "https://www.mycar.com.au/stores/sa/noarlunga" }, "geometry": { "type": "Point", "coordinates": [ 138.49571, -35.142056 ] } },
{ "type": "Feature", "properties": { "name": "North Lakes", "url": "https://www.mycar.com.au/stores/qld/north-lakes" }, "geometry": { "type": "Point", "coordinates": [ 153.014653, -27.242063 ] } },
{ "type": "Feature", "properties": { "name": "North Narrabeen", "url": "https://www.mycar.com.au/stores/nsw/north-narrabeen" }, "geometry": { "type": "Point", "coordinates": [ 151.300389, -33.699718 ] } },
{ "type": "Feature", "properties": { "name": "North Rocks", "url": "https://www.mycar.com.au/stores/nsw/north-rocks" }, "geometry": { "type": "Point", "coordinates": [ 151.027634, -33.768897 ] } },
{ "type": "Feature", "properties": { "name": "Northland", "url": "https://www.mycar.com.au/stores/vic/northland" }, "geometry": { "type": "Point", "coordinates": [ 145.030164, -37.738227 ] } },
{ "type": "Feature", "properties": { "name": "Nowra", "url": "https://www.mycar.com.au/stores/nsw/nowra" }, "geometry": { "type": "Point", "coordinates": [ 150.606189, -34.876441 ] } },
{ "type": "Feature", "properties": { "name": "Orange", "url": "https://www.mycar.com.au/stores/nsw/orange" }, "geometry": { "type": "Point", "coordinates": [ 149.100126, -33.28253 ] } },
{ "type": "Feature", "properties": { "name": "Pagewood Bunnerong", "url": "https://www.mycar.com.au/stores/nsw/pagewood-bunnerong" }, "geometry": { "type": "Point", "coordinates": [ 151.228502, -33.940512 ] } },
{ "type": "Feature", "properties": { "name": "Pagewood Eastgardens", "url": "https://www.mycar.com.au/stores/nsw/pagewood-eastgardens" }, "geometry": { "type": "Point", "coordinates": [ 151.223974, -33.945443 ] } },
{ "type": "Feature", "properties": { "name": "Palmerston", "url": "https://www.mycar.com.au/stores/nt/palmerston" }, "geometry": { "type": "Point", "coordinates": [ 130.987321, -12.480953 ] } },
{ "type": "Feature", "properties": { "name": "Parramatta", "url": "https://www.mycar.com.au/stores/nsw/parramatta" }, "geometry": { "type": "Point", "coordinates": [ 150.999763, -33.817324 ] } },
{ "type": "Feature", "properties": { "name": "Penrith", "url": "https://www.mycar.com.au/stores/nsw/penrith" }, "geometry": { "type": "Point", "coordinates": [ 150.693485, -33.756948 ] } },
{ "type": "Feature", "properties": { "name": "Pimpama", "url": "https://www.mycar.com.au/stores/qld/pimpama" }, "geometry": { "type": "Point", "coordinates": [ 153.291866, -27.813896 ] } },
{ "type": "Feature", "properties": { "name": "Point Cook", "url": "https://www.mycar.com.au/stores/vic/point-cook" }, "geometry": { "type": "Point", "coordinates": [ 144.734681, -37.881747 ] } },
{ "type": "Feature", "properties": { "name": "Port Adelaide", "url": "https://www.mycar.com.au/stores/sa/port-adelaide" }, "geometry": { "type": "Point", "coordinates": [ 138.505364, -34.848502 ] } },
{ "type": "Feature", "properties": { "name": "Preston", "url": "https://www.mycar.com.au/stores/vic/preston" }, "geometry": { "type": "Point", "coordinates": [ 145.004596, -37.747687 ] } },
{ "type": "Feature", "properties": { "name": "Queanbeyan", "url": "https://www.mycar.com.au/stores/nsw/queanbeyan" }, "geometry": { "type": "Point", "coordinates": [ 149.232037, -35.350328 ] } },
{ "type": "Feature", "properties": { "name": "Redbank", "url": "https://www.mycar.com.au/stores/qld/redbank" }, "geometry": { "type": "Point", "coordinates": [ 152.868012, -27.605317 ] } },
{ "type": "Feature", "properties": { "name": "Redbank Plains", "url": "https://www.mycar.com.au/stores/qld/redbank-plains" }, "geometry": { "type": "Point", "coordinates": [ 152.870736, -27.645183 ] } },
{ "type": "Feature", "properties": { "name": "Reservoir", "url": "https://www.mycar.com.au/stores/vic/reservoir" }, "geometry": { "type": "Point", "coordinates": [ 145.029221, -37.724992 ] } },
{ "type": "Feature", "properties": { "name": "Reynella", "url": "https://www.mycar.com.au/stores/sa/reynella" }, "geometry": { "type": "Point", "coordinates": [ 138.521223, -35.105954 ] } },
{ "type": "Feature", "properties": { "name": "Richmond", "url": "https://www.mycar.com.au/stores/vic/richmond" }, "geometry": { "type": "Point", "coordinates": [ 145.010585, -37.812081 ] } },
{ "type": "Feature", "properties": { "name": "Ringwood", "url": "https://www.mycar.com.au/stores/vic/ringwood" }, "geometry": { "type": "Point", "coordinates": [ 145.22774, -37.811223 ] } },
{ "type": "Feature", "properties": { "name": "Robina", "url": "https://www.mycar.com.au/stores/qld/robina" }, "geometry": { "type": "Point", "coordinates": [ 153.387021, -28.077238 ] } },
{ "type": "Feature", "properties": { "name": "Rockhampton", "url": "https://www.mycar.com.au/stores/qld/rockhampton" }, "geometry": { "type": "Point", "coordinates": [ 150.522824, -23.356785 ] } },
{ "type": "Feature", "properties": { "name": "Rockingham Park", "url": "https://www.mycar.com.au/stores/wa/rockingham-park" }, "geometry": { "type": "Point", "coordinates": [ 115.7441, -32.290146 ] } },
{ "type": "Feature", "properties": { "name": "Rosebud", "url": "https://www.mycar.com.au/stores/vic/rosebud" }, "geometry": { "type": "Point", "coordinates": [ 144.892083, -38.36174 ] } },
{ "type": "Feature", "properties": { "name": "Rowville", "url": "https://www.mycar.com.au/stores/vic/rowville" }, "geometry": { "type": "Point", "coordinates": [ 145.237369, -37.920034 ] } },
{ "type": "Feature", "properties": { "name": "Salisbury", "url": "https://www.mycar.com.au/stores/sa/salisbury" }, "geometry": { "type": "Point", "coordinates": [ 138.649531, -34.761423 ] } },
{ "type": "Feature", "properties": { "name": "Seven Hills", "url": "https://www.mycar.com.au/stores/nsw/seven-hills" }, "geometry": { "type": "Point", "coordinates": [ 150.933295, -33.775864 ] } },
{ "type": "Feature", "properties": { "name": "Shellharbour", "url": "https://www.mycar.com.au/stores/nsw/shellharbour" }, "geometry": { "type": "Point", "coordinates": [ 150.839138, -34.563479 ] } },
{ "type": "Feature", "properties": { "name": "Shepparton", "url": "https://www.mycar.com.au/stores/vic/shepparton" }, "geometry": { "type": "Point", "coordinates": [ 145.401095, -36.38295 ] } },
{ "type": "Feature", "properties": { "name": "Sherwood", "url": "https://www.mycar.com.au/stores/qld/sherwood" }, "geometry": { "type": "Point", "coordinates": [ 152.983149, -27.532704 ] } },
{ "type": "Feature", "properties": { "name": "Smithfield", "url": "https://www.mycar.com.au/stores/qld/smithfield" }, "geometry": { "type": "Point", "coordinates": [ 145.692232, -16.837068 ] } },
{ "type": "Feature", "properties": { "name": "South Melbourne", "url": "https://www.mycar.com.au/stores/vic/south-melbourne" }, "geometry": { "type": "Point", "coordinates": [ 144.965421, -37.828645 ] } },
{ "type": "Feature", "properties": { "name": "South Morang", "url": "https://www.mycar.com.au/stores/vic/south-morang" }, "geometry": { "type": "Point", "coordinates": [ 145.077237, -37.649839 ] } },
{ "type": "Feature", "properties": { "name": "Southland", "url": "https://www.mycar.com.au/stores/vic/southland" }, "geometry": { "type": "Point", "coordinates": [ 145.051672, -37.958125 ] } },
{ "type": "Feature", "properties": { "name": "Southport", "url": "https://www.mycar.com.au/stores/qld/southport" }, "geometry": { "type": "Point", "coordinates": [ 153.416142, -27.96893 ] } },
{ "type": "Feature", "properties": { "name": "Springfield Central", "url": "https://www.mycar.com.au/stores/qld/springfield-central" }, "geometry": { "type": "Point", "coordinates": [ 152.903209, -27.675984 ] } },
{ "type": "Feature", "properties": { "name": "Stafford", "url": "https://www.mycar.com.au/stores/qld/stafford" }, "geometry": { "type": "Point", "coordinates": [ 153.011024, -27.409849 ] } },
{ "type": "Feature", "properties": { "name": "Strathpine", "url": "https://www.mycar.com.au/stores/qld/strathpine" }, "geometry": { "type": "Point", "coordinates": [ 152.992302, -27.308453 ] } },
{ "type": "Feature", "properties": { "name": "Sunbury", "url": "https://www.mycar.com.au/stores/vic/sunbury" }, "geometry": { "type": "Point", "coordinates": [ 144.730288, -37.578087 ] } },
{ "type": "Feature", "properties": { "name": "Sunnybank", "url": "https://www.mycar.com.au/stores/qld/sunnybank" }, "geometry": { "type": "Point", "coordinates": [ 153.063058, -27.570963 ] } },
{ "type": "Feature", "properties": { "name": "Sunnybank Hills", "url": "https://www.mycar.com.au/stores/qld/sunnybank-hills" }, "geometry": { "type": "Point", "coordinates": [ 153.055655, -27.610909 ] } },
{ "type": "Feature", "properties": { "name": "Sunshine", "url": "https://www.mycar.com.au/stores/vic/sunshine" }, "geometry": { "type": "Point", "coordinates": [ 144.830335, -37.777535 ] } },
{ "type": "Feature", "properties": { "name": "Sydenham", "url": "https://www.mycar.com.au/stores/vic/sydenham" }, "geometry": { "type": "Point", "coordinates": [ 144.777766, -37.69896 ] } },
{ "type": "Feature", "properties": { "name": "Sylvania", "url": "https://www.mycar.com.au/stores/nsw/sylvania" }, "geometry": { "type": "Point", "coordinates": [ 151.10383, -34.010543 ] } },
{ "type": "Feature", "properties": { "name": "Tamworth", "url": "https://www.mycar.com.au/stores/nsw/tamworth" }, "geometry": { "type": "Point", "coordinates": [ 150.932615, -31.092161 ] } },
{ "type": "Feature", "properties": { "name": "Tea Tree", "url": "https://www.mycar.com.au/stores/sa/tea-tree" }, "geometry": { "type": "Point", "coordinates": [ 138.691471, -34.831357 ] } },
{ "type": "Feature", "properties": { "name": "The Grove", "url": "https://www.mycar.com.au/stores/sa/the-grove" }, "geometry": { "type": "Point", "coordinates": [ 138.691325, -34.791483 ] } },
{ "type": "Feature", "properties": { "name": "Toormina", "url": "https://www.mycar.com.au/stores/nsw/toormina" }, "geometry": { "type": "Point", "coordinates": [ 153.091853, -30.353855 ] } },
{ "type": "Feature", "properties": { "name": "Toowoomba", "url": "https://www.mycar.com.au/stores/qld/toowoomba" }, "geometry": { "type": "Point", "coordinates": [ 151.949222, -27.595543 ] } },
{ "type": "Feature", "properties": { "name": "Top Ryde", "url": "https://www.mycar.com.au/stores/nsw/top-ryde" }, "geometry": { "type": "Point", "coordinates": [ 151.10509, -33.812538 ] } },
{ "type": "Feature", "properties": { "name": "Torquay", "url": "https://www.mycar.com.au/stores/vic/torquay" }, "geometry": { "type": "Point", "coordinates": [ 144.317729, -38.311298 ] } },
{ "type": "Feature", "properties": { "name": "Townsville", "url": "https://www.mycar.com.au/stores/qld/townsville" }, "geometry": { "type": "Point", "coordinates": [ 146.760942, -19.297733 ] } },
{ "type": "Feature", "properties": { "name": "Traralgon", "url": "https://www.mycar.com.au/stores/vic/traralgon" }, "geometry": { "type": "Point", "coordinates": [ 146.54088, -38.19403 ] } },
{ "type": "Feature", "properties": { "name": "Tuggeranong", "url": "https://www.mycar.com.au/stores/act/tuggeranong" }, "geometry": { "type": "Point", "coordinates": [ 149.065997, -35.417593 ] } },
{ "type": "Feature", "properties": { "name": "Tweed Heads", "url": "https://www.mycar.com.au/stores/nsw/tweed-heads" }, "geometry": { "type": "Point", "coordinates": [ 153.544327, -28.19902 ] } },
{ "type": "Feature", "properties": { "name": "Victoria Point", "url": "https://www.mycar.com.au/stores/qld/victoria-point" }, "geometry": { "type": "Point", "coordinates": [ 153.280751, -27.586996 ] } },
{ "type": "Feature", "properties": { "name": "Wagga Wagga", "url": "https://www.mycar.com.au/stores/nsw/wagga-wagga" }, "geometry": { "type": "Point", "coordinates": [ 147.37068, -35.113525 ] } },
{ "type": "Feature", "properties": { "name": "Wangaratta", "url": "https://www.mycar.com.au/stores/vic/wangaratta" }, "geometry": { "type": "Point", "coordinates": [ 146.316237, -36.359593 ] } },
{ "type": "Feature", "properties": { "name": "Wanneroo", "url": "https://www.mycar.com.au/stores/wa/wanneroo" }, "geometry": { "type": "Point", "coordinates": [ 115.804825, -31.753742 ] } },
{ "type": "Feature", "properties": { "name": "Waratah", "url": "https://www.mycar.com.au/stores/nsw/waratah" }, "geometry": { "type": "Point", "coordinates": [ 151.727125, -32.906919 ] } },
{ "type": "Feature", "properties": { "name": "Warragul", "url": "https://www.mycar.com.au/stores/vic/warragul" }, "geometry": { "type": "Point", "coordinates": [ 145.950827, -38.165731 ] } },
{ "type": "Feature", "properties": { "name": "Warrawong", "url": "https://www.mycar.com.au/stores/nsw/warrawong" }, "geometry": { "type": "Point", "coordinates": [ 150.88887, -34.486732 ] } },
{ "type": "Feature", "properties": { "name": "Warwick", "url": "https://www.mycar.com.au/stores/wa/warwick" }, "geometry": { "type": "Point", "coordinates": [ 115.812206, -31.842602 ] } },
{ "type": "Feature", "properties": { "name": "Waurn Ponds", "url": "https://www.mycar.com.au/stores/vic/waurn-ponds" }, "geometry": { "type": "Point", "coordinates": [ 144.318101, -38.197689 ] } },
{ "type": "Feature", "properties": { "name": "Waverley Gardens", "url": "https://www.mycar.com.au/stores/vic/waverley-gardens" }, "geometry": { "type": "Point", "coordinates": [ 145.190378, -37.93681 ] } },
{ "type": "Feature", "properties": { "name": "Wendouree", "url": "https://www.mycar.com.au/stores/vic/wendouree" }, "geometry": { "type": "Point", "coordinates": [ 143.824876, -37.534013 ] } },
{ "type": "Feature", "properties": { "name": "Werribee", "url": "https://www.mycar.com.au/stores/vic/werribee" }, "geometry": { "type": "Point", "coordinates": [ 144.680801, -37.878506 ] } },
{ "type": "Feature", "properties": { "name": "West Lakes", "url": "https://www.mycar.com.au/stores/sa/west-lakes" }, "geometry": { "type": "Point", "coordinates": [ 138.490605, -34.87949 ] } },
{ "type": "Feature", "properties": { "name": "West Wynnum", "url": "https://www.mycar.com.au/stores/qld/west-wynnum" }, "geometry": { "type": "Point", "coordinates": [ 153.155377, -27.456367 ] } },
{ "type": "Feature", "properties": { "name": "Wodonga", "url": "https://www.mycar.com.au/stores/vic/wodonga" }, "geometry": { "type": "Point", "coordinates": [ 146.889875, -36.119229 ] } },
{ "type": "Feature", "properties": { "name": "Wollongong", "url": "https://www.mycar.com.au/stores/nsw/wollongong" }, "geometry": { "type": "Point", "coordinates": [ 150.892807, -34.419697 ] } },
{ "type": "Feature", "properties": { "name": "Woodridge", "url": "https://www.mycar.com.au/stores/qld/woodridge" }, "geometry": { "type": "Point", "coordinates": [ 153.114287, -27.643029 ] } },
{ "type": "Feature", "properties": { "name": "Woy Woy", "url": "https://www.mycar.com.au/stores/nsw/woy-woy" }, "geometry": { "type": "Point", "coordinates": [ 151.32397, -33.488043 ] } },
{ "type": "Feature", "properties": { "name": "Wyoming", "url": "https://www.mycar.com.au/stores/nsw/wyoming" }, "geometry": { "type": "Point", "coordinates": [ 151.352693, -33.404791 ] } }
]
}
